[{"_id":"56c66be5a73e4927415070e3","name":"Contee Road/Laurel 1","geocode":{"lng":-76.8694496,"lat":39.0778305},"accessibility":true,"hours":["24 hours a day, 7 days a week"],"address":{"state":"MD","zip":"20707","city":"Laurel","street_name":"Baltimore Avenue","street_number":"13600"},"language_list":["Korean","Hindustani","French","Portuguese","English"],"amount_left":711839},{"_id":"56c66be5a73e4927415070e4","name":"Contee Road/Laurel 2","geocode":{"lng":-76.8694496,"lat":39.0778305},"accessibility":false,"hours":["24 hours a day, 7 days a week"],"address":{"state":"MD","zip":"20707","city":"Laurel","street_name":"Baltimore Avenue","street_number":"13600"},"language_list":["Chinese","English"],"amount_left":273704},{"_id":"56c66be5a73e4927415070e5","name":"Contee Road/Laurel 3","geocode":{"lng":-76.8694496,"lat":39.0778305},"accessibility":true,"hours":["24 hours a day, 7 days a week"],"address":{"state":"MD","zip":"20707","city":"Laurel","street_name":"Baltimore Avenue","street_number":"13600"},"language_list":["Spanish","French","Hindustani","Portuguese","Korean","English"],"amount_left":949271},{"_id":"56c66be5a73e4927415070f5","name":"Laurel Shopping Center 1","geocode":{"lng":-76.8538429,"lat":39.0951371},"accessibility":true,"hours":["24 hours a day, 7 days a week"],"address":{"state":"MD","zip":"20707","city":"Laurel","street_name":"Washington Boulevard","street_number":"1025"},"language_list":["English"],"amount_left":123898},{"_id":"56c66be5a73e4927415070f6","name":"Laurel Shopping Center 2","geocode":{"lng":-76.8538429,"lat":39.0951371},"accessibility":false,"hours":["24 hours a day, 7 days a week"],"address":{"state":"MD","zip":"20707","city":"Laurel","street_name":"Washington Boulevard","street_number":"1025"},"language_list":["Korean","French","Chinese","Hindustani","English"],"amount_left":54083},{"_id":"56c66be5a73e4927415070f7","name":"Laurel Shopping Center 3","geocode":{"lng":-76.8538429,"lat":39.0951371},"accessibility":false,"hours":["24 hours a day, 7 days a week"],"address":{"state":"MD","zip":"20707","city":"Laurel","street_name":"Washington Boulevard","street_number":"1025"},"language_list":["Korean","Portuguese","Chinese","French","Hindustani","Spanish","English"],"amount_left":241460},{"_id":"56c66be5a73e492741507110","name":"Corridor Marketplace 1","geocode":{"lng":-76.80815799999999,"lat":39.0978281},"accessibility":true,"hours":["24 hours a day, 7 days a week"],"address":{"state":"MD","zip":"20724","city":"Laurel","street_name":"Corridor Marketplace","street_number":"3355"},"language_list":["French","Chinese","Hindustani","Portuguese","English"],"amount_left":416799},{"_id":"56c66be5a73e492741507111","name":"Corridor Marketplace 2","geocode":{"lng":-76.80815799999999,"lat":39.0978281},"accessibility":false,"hours":["24 hours a day, 7 days a week"],"address":{"state":"MD","zip":"20724","city":"Laurel","street_name":"Corridor Marketplace","street_number":"3355"},"language_list":["Korean","Chinese","Hindustani","Spanish","Portuguese","English"],"amount_left":171997},{"_id":"56c66be5a73e492741507112","name":"Corridor Marketplace 3","geocode":{"lng":-76.80815799999999,"lat":39.0978281},"accessibility":true,"hours":["24 hours a day, 7 days a week"],"address":{"state":"MD","zip":"20724","city":"Laurel","street_name":"Corridor Marketplace","street_number":"3355"},"language_list":["Korean","Portuguese","Spanish","French","English"],"amount_left":287725},{"_id":"56c66be5a73e492741507127","name":"Minstrel Crossing 1","geocode":{"lng":-76.8454275,"lat":39.1764975},"accessibility":false,"hours":["24 hours a day, 7 days a week"],"address":{"state":"MD","zip":"21045","city":"Columbia","street_name":"Minstrel Way","street_number":"7085"},"language_list":["Spanish","French","Hindustani","Korean","English"],"amount_left":925609}]
