[{"_id":"57cf75cea73e494d8675f289","name":"Residence Inn Baltimore Downtown/ Inner Harbor","category":["lodging","restaurant","food","point_of_interest","establishment"],"geocode":{"lat":39.2886564,"lng":-76.6132446},"address":{"zip":"21202","state":"MD","street number":"17","city":"Baltimore","street name":"Light Street"}},{"_id":"57cf75cea73e494d8675f28a","name":"Baltimore Marriott Inner Harbor at Camden Yards","category":["lodging","restaurant","food","point_of_interest","establishment"],"geocode":{"lat":39.28696679999999,"lng":-76.6209885},"address":{"zip":"21201","state":"MD","street number":"110","city":"Baltimore","street name":"South Eutaw Street"}},{"_id":"57cf75cea73e494d8675f28b","name":"Baltimore Marriott Waterfront","category":["lodging","restaurant","food","point_of_interest","establishment"],"geocode":{"lat":39.2831367,"lng":-76.60279779999999},"address":{"zip":"21202","state":"MD","street number":"700","city":"Baltimore","street name":"Aliceanna Street"}},{"_id":"57cf75cea73e494d8675f28c","name":"Arundel Mills","category":["shopping_mall","jewelry_store","restaurant","food","clothing_store","store","point_of_interest","establishment"],"geocode":{"lat":39.1573392,"lng":-76.72496989999999},"address":{"zip":"21076","state":"MD","street number":"7000","city":"Hanover","street name":"Arundel Mills Circle"}},{"_id":"57cf75cea73e494d8675f28d","name":"Turf Valley Resort","category":["spa","lodging","restaurant","food","point_of_interest","establishment"],"geocode":{"lat":39.297013,"lng":-76.892273},"address":{"zip":"21042","state":"MD","street number":"2700","city":"Ellicott City","street name":"Turf Valley Road"}},{"_id":"57cf75cea73e494d8675f28e","name":"Towson University Marriott Conference Hotel","category":["lodging","restaurant","food","point_of_interest","establishment"],"geocode":{"lat":39.39593199999999,"lng":-76.604894},"address":{"zip":"21204","state":"MD","street number":"10","city":"Towson","street name":"Burke Avenue"}},{"_id":"57cf75cea73e494d8675f291","name":"IKEA Baltimore Home Furnishings","category":["furniture_store","home_goods_store","store","point_of_interest","establishment"],"geocode":{"lat":39.375367,"lng":-76.461592},"address":{"zip":"21236","state":"MD","street number":"8352","city":"Baltimore","street name":"Honeygo Boulevard"}},{"_id":"57cf75cea73e494d8675f292","name":"Bonefish Grill","category":["bar","restaurant","food","point_of_interest","establishment"],"geocode":{"lat":39.424862,"lng":-76.779333},"address":{"zip":"21117","state":"MD","city":"Owings Mills"}},{"_id":"57cf75cea73e494d8675f293","name":"Giant","category":["pharmacy","grocery_or_supermarket","health","food","store","point_of_interest","establishment"],"geocode":{"lat":39.3278592,"lng":-76.6079529},"address":{"zip":"21218","state":"MD","street number":"601","city":"Baltimore","street name":"East 33rd Street"}},{"_id":"57cf75cea73e494d8675f294","name":"Buffalo Wild Wings","category":["meal_takeaway","bar","restaurant","food","point_of_interest","establishment"],"geocode":{"lat":39.3751109,"lng":-76.4693388},"address":{"zip":"21236","state":"MD","street number":"8200","city":"Nottingham","street name":"Perry Hall Boulevard"}},{"_id":"57cf75cea73e494d8675f295","name":"Whole Foods Market","category":["grocery_or_supermarket","bakery","florist","health","food","store","point_of_interest","establishment"],"geocode":{"lat":39.368658,"lng":-76.6499072},"address":{"zip":"21209","state":"MD","street number":"1330","city":"Baltimore","street name":"Smith Avenue"}},{"_id":"57cf75cea73e494d8675f296","name":"Macy's","category":["department_store","jewelry_store","clothing_store","furniture_store","home_goods_store","store","point_of_interest","establishment"],"geocode":{"lat":39.31059389999999,"lng":-76.750112},"address":{"zip":"21244","state":"MD","street number":"6901","city":"Baltimore","street name":"Security Boulevard"}},{"_id":"57cf75cea73e494d8675f297","name":"Cosi","category":["restaurant","meal_takeaway","food","store","point_of_interest","establishment"],"geocode":{"lat":39.2868815,"lng":-76.61575959999999},"address":{"zip":"21201","state":"MD","street number":"100","city":"Baltimore","street name":"South Charles Street"}},{"_id":"57cf75cea73e494d8675f299","name":"Royal Taj Restaurant","category":["bar","restaurant","food","point_of_interest","establishment"],"geocode":{"lat":39.18625319999999,"lng":-76.80103390000001},"address":{"zip":"21045","state":"MD","street number":"8335","city":"Columbia","street name":"Benson Drive"}},{"_id":"57cf75cea73e494d8675f29a","name":"Kohl's Timonium","category":["department_store","store","point_of_interest","establishment"],"geocode":{"lat":39.430709,"lng":-76.624909},"address":{"zip":"21093","state":"MD","street number":"50","city":"Lutherville-Timonium","street name":"West Ridgely Road"}},{"_id":"57cf75cea73e494d8675f29b","name":"Marshalls","category":["department_store","clothing_store","store","point_of_interest","establishment"],"geocode":{"lat":39.18046849999999,"lng":-76.8196246},"address":{"zip":"21046","state":"MD","city":"Columbia"}},{"_id":"57cf75cea73e494d8675f29c","name":"Target","category":["department_store","electronics_store","clothing_store","furniture_store","home_goods_store","store","point_of_interest","establishment"],"geocode":{"lat":39.1974412,"lng":-76.8131858},"address":{"zip":"21045","state":"MD","street number":"6111","city":"Columbia","street name":"Dobbin Road"}},{"_id":"57cf75cea73e494d8675f29d","name":"Miss Shirley's Cafe, Inner Harbor","category":["cafe","restaurant","food","point_of_interest","establishment"],"geocode":{"lat":39.287023,"lng":-76.605278},"address":{"zip":"21202","state":"MD","street number":"750","city":"Baltimore","street name":"East Pratt Street"}},{"_id":"57cf75cea73e494d8675f29e","name":"Target","category":["department_store","electronics_store","clothing_store","furniture_store","home_goods_store","store","point_of_interest","establishment"],"geocode":{"lat":39.3852716,"lng":-76.73125379999999},"address":{"zip":"21208","state":"MD","street number":"1737","city":"Pikesville","street name":"Reisterstown Road"}},{"_id":"57cf75cea73e494d8675f29f","name":"Woodberry Kitchen","category":["bar","restaurant","food","point_of_interest","establishment"],"geocode":{"lat":39.3319921,"lng":-76.6455963},"address":{"zip":"21211","state":"MD","street number":"2010","city":"Baltimore","street name":"Clipper Park Road"}}]
