[{"_id":"57cf75cea73e494d8675ef69","name":"Falls Church Marriott Fairview Park","category":["night_club","bar","lodging","restaurant","food","point_of_interest","establishment"],"geocode":{"lat":38.8618133,"lng":-77.2163155},"address":{"zip":"22042","state":"VA","street number":"3111","city":"Falls Church","street name":"Fairview Park Drive"}},{"_id":"57cf75cea73e494d8675ef6d","name":"Courtyard Alexandria Old Town/Southwest","category":["lodging","restaurant","food","point_of_interest","establishment"],"geocode":{"lat":38.80203410000001,"lng":-77.07936409999999},"address":{"zip":"22314","state":"VA","street number":"2700","city":"Alexandria","street name":"Eisenhower Avenue"}},{"_id":"57cf75cea73e494d8675ef6f","name":"Washington Marriott Georgetown","category":["lodging","restaurant","food","point_of_interest","establishment"],"geocode":{"lat":38.90592240000001,"lng":-77.04854859999999},"address":{"zip":"20037","state":"DC","street number":"1221","city":"Washington","street name":"22nd Street Northwest"}},{"_id":"57cf75cea73e494d8675ef70","name":"Renaissance Washington, DC Dupont Circle Hotel","category":["lodging","restaurant","food","point_of_interest","establishment"],"geocode":{"lat":38.90471000000001,"lng":-77.04753199999999},"address":{"zip":"20037","state":"DC","street number":"1143","city":"Washington","street name":"New Hampshire Avenue Northwest"}},{"_id":"57cf75cea73e494d8675ef71","name":"Courtyard Washington, DC/Dupont Circle","category":["gym","lodging","health","restaurant","food","point_of_interest","establishment"],"geocode":{"lat":38.9159856,"lng":-77.0467961},"address":{"zip":"20009","state":"DC","street number":"1900","city":"Washington","street name":"Connecticut Ave NW"}},{"_id":"57cf75cea73e494d8675ef72","name":"The Mayflower Hotel, Autograph Collection","category":["bar","lodging","restaurant","food","point_of_interest","establishment"],"geocode":{"lat":38.9044783,"lng":-77.03980469999999},"address":{"zip":"20036","state":"DC","street number":"1127","city":"Washington","street name":"Connecticut Avenue Northwest"}},{"_id":"57cf75cea73e494d8675ef73","name":"JW Marriott Washington, DC","category":["bar","lodging","restaurant","food","point_of_interest","establishment"],"geocode":{"lat":38.896306,"lng":-77.03159099999999},"address":{"zip":"20004","state":"DC","street number":"1331","city":"Washington","street name":"Pennsylvania Avenue Northwest"}},{"_id":"57cf75cea73e494d8675ef74","name":"Bethesda Marriott Suites","category":["lodging","restaurant","food","point_of_interest","establishment"],"geocode":{"lat":39.02224289999999,"lng":-77.13815860000001},"address":{"zip":"20817","state":"MD","street number":"6711","city":"Bethesda","street name":"Democracy Boulevard"}},{"_id":"57cf75cea73e494d8675ef75","name":"Gaylord National Resort & Convention Center","category":["cafe","lodging","food","point_of_interest","establishment"],"geocode":{"lat":38.780992,"lng":-77.017174},"address":{"zip":"20745","state":"MD","street number":"201","city":"Fort Washington","street name":"Waterfront Street"}},{"_id":"57cf75cea73e494d8675ef76","name":"Phoenix Park Hotel","category":["bar","lodging","restaurant","food","point_of_interest","establishment"],"geocode":{"lat":38.8970727,"lng":-77.00948079999999},"address":{"zip":"20001","state":"DC","street number":"520","city":"Washington","street name":"North Capitol Street Northwest"}},{"_id":"57cf75cea73e494d8675ef78","name":"Greenbelt Marriott","category":["lodging","restaurant","food","point_of_interest","establishment"],"geocode":{"lat":39.006493,"lng":-76.8962495},"address":{"zip":"20770","state":"MD","street number":"6400","city":"Greenbelt","street name":"Ivy Lane"}},{"_id":"57cf75cea73e494d8675ef79","name":"Best Buy","category":["electronics_store","home_goods_store","store","point_of_interest","establishment"],"geocode":{"lat":38.9292478,"lng":-77.0335025},"address":{"zip":"20010","state":"DC","street number":"3100","city":"Washington","street name":"14th Street Northwest"}},{"_id":"57cf75cea73e494d8675ef7a","name":"Olive Garden","category":["meal_takeaway","restaurant","food","point_of_interest","establishment"],"geocode":{"lat":38.8472051,"lng":-77.11886299999999},"address":{"zip":"22041","city":"Falls Church","state":"VA"}},{"_id":"57cf75cea73e494d8675ef7b","name":"Burlington Coat Factory","category":["clothing_store","store","point_of_interest","establishment"],"geocode":{"lat":38.8492086,"lng":-77.1203424},"address":{"zip":"22041","state":"VA","street number":"3524","city":"Bailey's Crossroads","street name":"South Jefferson Street"}},{"_id":"57cf75cea73e494d8675ef7c","name":"Whole Foods Market","category":["grocery_or_supermarket","bakery","florist","health","food","store","point_of_interest","establishment"],"geocode":{"lat":38.9093874,"lng":-77.033361},"address":{"zip":"20005","state":"DC","street number":"1440","city":"Washington","street name":"P Street Northwest"}},{"_id":"57cf75cea73e494d8675ef7f","name":"Blackfinn Ameripub - DC","category":["bar","restaurant","food","point_of_interest","establishment"],"geocode":{"lat":38.901179,"lng":-77.037579},"address":{"zip":"20006","state":"DC","street number":"1620","city":"Washington","street name":"I Street Northwest"}},{"_id":"57cf75cea73e494d8675ef80","name":"Costco Wholesale","category":["food","point_of_interest","establishment"],"geocode":{"lat":38.8617823,"lng":-77.057475},"address":{"zip":"22202","state":"VA","street number":"1200","city":"Arlington","street name":"South Fern Street"}},{"_id":"57cf75cea73e494d8675ef83","name":"Elephant & Castle","category":["bar","restaurant","food","point_of_interest","establishment"],"geocode":{"lat":38.89573530000001,"lng":-77.02829},"address":{"zip":"20004","state":"DC","street number":"1201","city":"Washington","street name":"Pennsylvania Avenue Northwest"}},{"_id":"57cf75cea73e494d8675ef85","name":"Target","category":["department_store","electronics_store","clothing_store","furniture_store","home_goods_store","store","point_of_interest","establishment"],"geocode":{"lat":38.9292886,"lng":-77.033126},"address":{"zip":"20010","state":"DC","street number":"3100","city":"Washington","street name":"14th Street Northwest"}},{"_id":"57cf75cea73e494d8675ef86","name":"Tschiffely Pharmacy","category":["pharmacy","health","store","point_of_interest","establishment"],"geocode":{"lat":38.9050493,"lng":-77.0431319},"address":{"zip":"20036","state":"DC","street number":"1145","city":"Washington","street name":"19th Street Northwest"}}]
